{
"type": "FeatureCollection",
"name": "EDUU_Structure",
"crs": { "type": "name", "properties": { "name": "urn:ogc:def:crs:OGC:1.3:CRS84" } },
"features": [
{ "type": "Feature", "properties": { "name": "TGO_235" }, "geometry": { "type": "Point", "coordinates": [ 9.380821237775283, 48.59728417583483 ] } },
{ "type": "Feature", "properties": { "name": "FFM_FUL" }, "geometry": { "type": "Point", "coordinates": [ 8.426675093711465, 50.971409082064575 ] } },
{ "type": "Feature", "properties": { "name": "LSAS_Z" }, "geometry": { "type": "Point", "coordinates": [ 8.569173490509549, 47.287333506919722 ] } },
{ "type": "Feature", "properties": { "name": "FFM" }, "geometry": { "type": "Point", "coordinates": [ 8.669033800882847, 50.360662755739853 ] } },
{ "type": "Feature", "properties": { "name": "FFM_RHR" }, "geometry": { "type": "Point", "coordinates": [ 7.872679702228442, 50.980249984415138 ] } },
{ "type": "Feature", "properties": { "name": "FUL" }, "geometry": { "type": "Point", "coordinates": [ 9.65866164175193, 50.783567188145206 ] } },
{ "type": "Feature", "properties": { "name": "SOL_255" }, "geometry": { "type": "Point", "coordinates": [ 10.143801807216102, 51.251025757694677 ] } },
{ "type": "Feature", "properties": { "name": "FUL_255" }, "geometry": { "type": "Point", "coordinates": [ 9.65627362688234, 51.155913967934467 ] } },
{ "type": "Feature", "properties": { "name": "NTM_KIR" }, "geometry": { "type": "Point", "coordinates": [ 6.663350642844035, 49.735040601757653 ] } },
{ "type": "Feature", "properties": { "name": "NTM_NOR" }, "geometry": { "type": "Point", "coordinates": [ 7.439819384506721, 50.570310094555076 ] } },
{ "type": "Feature", "properties": { "name": "OLN_NOR" }, "geometry": { "type": "Point", "coordinates": [ 6.926860873880276, 50.574092631345529 ] } },
{ "type": "Feature", "properties": { "name": "NTM" }, "geometry": { "type": "Point", "coordinates": [ 7.46047757993253, 49.840040366688129 ] } },
{ "type": "Feature", "properties": { "name": "MNS_PADH" }, "geometry": { "type": "Point", "coordinates": [ 8.32571174447285, 51.13206668363744 ] } },
{ "type": "Feature", "properties": { "name": "NTM_RUD" }, "geometry": { "type": "Point", "coordinates": [ 6.839981434692238, 50.365464454776571 ] } },
{ "type": "Feature", "properties": { "name": "SLN" }, "geometry": { "type": "Point", "coordinates": [ 8.554966887128847, 48.9585538513656 ] } },
{ "type": "Feature", "properties": { "name": "TGO" }, "geometry": { "type": "Point", "coordinates": [ 9.304230631011762, 49.112470863159132 ] } },
{ "type": "Feature", "properties": { "name": "WUR" }, "geometry": { "type": "Point", "coordinates": [ 9.904484342209768, 49.666695228856852 ] } },
{ "type": "Feature", "properties": { "name": "MNS" }, "geometry": { "type": "Point", "coordinates": [ 7.950833647031013, 52.012929148514303 ] } },
{ "type": "Feature", "properties": { "name": "RHR" }, "geometry": { "type": "Point", "coordinates": [ 7.087895664017328, 51.258893752070222 ] } },
{ "type": "Feature", "properties": { "name": "LFEE_UE" }, "geometry": { "type": "Point", "coordinates": [ 7.234294543508038, 48.666230792597304 ] } },
{ "type": "Feature", "properties": { "name": "OLN" }, "geometry": { "type": "Point", "coordinates": [ 6.168534459771376, 50.565084426284066 ] } },
{ "type": "Feature", "properties": { "name": "LUX" }, "geometry": { "type": "Point", "coordinates": [ 5.97607426768235, 49.719578278991932 ] } },
{ "type": "Feature", "properties": { "name": "WUR_ALB" }, "geometry": { "type": "Point", "coordinates": [ 10.660860785592039, 49.41969572168162 ] } },
{ "type": "Feature", "properties": { "name": "CEL" }, "geometry": { "type": "Point", "coordinates": [ 9.877819460528631, 52.496382795287623 ] } },
{ "type": "Feature", "properties": { "name": "CEL_HOL" }, "geometry": { "type": "Point", "coordinates": [ 10.315149629468776, 53.129801236619137 ] } },
{ "type": "Feature", "properties": { "name": "HOL" }, "geometry": { "type": "Point", "coordinates": [ 10.399191592937886, 53.975805612150111 ] } },
{ "type": "Feature", "properties": { "name": "SOL" }, "geometry": { "type": "Point", "coordinates": [ 9.840170163502041, 51.75118141530578 ] } },
{ "type": "Feature", "properties": { "name": "ERL" }, "geometry": { "type": "Point", "coordinates": [ 11.383259834357633, 49.998228798475886 ] } },
{ "type": "Feature", "properties": { "name": "SAL" }, "geometry": { "type": "Point", "coordinates": [ 11.588229198884664, 51.15054153346518 ] } },
{ "type": "Feature", "properties": { "name": "LOVV_B2" }, "geometry": { "type": "Point", "coordinates": [ 13.460537852496033, 47.813323829572518 ] } },
{ "type": "Feature", "properties": { "name": "LOVV_N2" }, "geometry": { "type": "Point", "coordinates": [ 14.463705811834977, 48.329831252151379 ] } },
{ "type": "Feature", "properties": { "name": "LOVV_W2" }, "geometry": { "type": "Point", "coordinates": [ 13.228549322735752, 47.057893755752495 ] } },
{ "type": "Feature", "properties": { "name": "EPWW_D" }, "geometry": { "type": "Point", "coordinates": [ 16.221729308241564, 52.31012991882632 ] } },
{ "type": "Feature", "properties": { "name": "EPWW_T" }, "geometry": { "type": "Point", "coordinates": [ 16.910309091108957, 51.005442435221326 ] } },
{ "type": "Feature", "properties": { "name": "ALP" }, "geometry": { "type": "Point", "coordinates": [ 10.568012717503397, 47.618349946490348 ] } },
{ "type": "Feature", "properties": { "name": "CHI" }, "geometry": { "type": "Point", "coordinates": [ 11.98343234404487, 47.950446112884308 ] } },
{ "type": "Feature", "properties": { "name": "DON" }, "geometry": { "type": "Point", "coordinates": [ 12.289417308878667, 48.962280973491929 ] } },
{ "type": "Feature", "properties": { "name": "ISA" }, "geometry": { "type": "Point", "coordinates": [ 10.770900321162596, 48.544773486275957 ] } },
{ "type": "Feature", "properties": { "name": "SPE" }, "geometry": { "type": "Point", "coordinates": [ 13.644470203420971, 51.250272375119536 ] } },
{ "type": "Feature", "properties": { "name": "HVL" }, "geometry": { "type": "Point", "coordinates": [ 12.780900497192771, 52.332286520479563 ] } },
{ "type": "Feature", "properties": { "name": "LKAA_N" }, "geometry": { "type": "Point", "coordinates": [ 15.361916086198171, 50.351245867492963 ] } },
{ "type": "Feature", "properties": { "name": "LKAA_W" }, "geometry": { "type": "Point", "coordinates": [ 13.604815823736342, 49.712585759576328 ] } },
{ "type": "Feature", "properties": { "name": "LIPP" }, "geometry": { "type": "Point", "coordinates": [ 11.50953567493902, 46.378722897209322 ] } },
{ "type": "Feature", "properties": { "name": "EPWW_B" }, "geometry": { "type": "Point", "coordinates": [ 15.539253023520184, 53.697141598546345 ] } },
{ "type": "Feature", "properties": { "name": "OSE" }, "geometry": { "type": "Point", "coordinates": [ 12.974770913051014, 53.765007175587591 ] } },
{ "type": "Feature", "properties": { "name": "EKDK_A" }, "geometry": { "type": "Point", "coordinates": [ 11.965682737298149, 54.963106839473333 ] } },
{ "type": "Feature", "properties": { "name": "ESMM_8-2" }, "geometry": { "type": "Point", "coordinates": [ 14.81773434919247, 54.477898226394096 ] } },
{ "type": "Feature", "properties": { "name": "ESMM_8-3" }, "geometry": { "type": "Point", "coordinates": [ 13.95902237536453, 55.473878762007978 ] } },
{ "type": "Feature", "properties": { "name": "FUL_PILAM" }, "geometry": { "type": "Point", "coordinates": [ 10.697907943435766, 50.435407835121104 ] } }
]
}
