{
"type": "FeatureCollection",
"name": "AAR",
"crs": { "type": "name", "properties": { "name": "urn:ogc:def:crs:OGC:1.3:CRS84" } },
"features": [
{ "type": "Feature", "properties": { "name": "TP1_jojo" }, "geometry": { "type": "Point", "coordinates": [ 6.291245277777778, 51.6225625 ] } },
{ "type": "Feature", "properties": { "name": "AP2_jojo" }, "geometry": { "type": "Point", "coordinates": [ 6.455302222222222, 51.133401111111112 ] } },
{ "type": "Feature", "properties": { "name": "TP2_jojo" }, "geometry": { "type": "Point", "coordinates": [ 6.767111388888889, 51.17449361111111 ] } },
{ "type": "Feature", "properties": { "name": "TP1_luca" }, "geometry": { "type": "Point", "coordinates": [ 7.710107222222223, 49.575072777777784 ] } },
{ "type": "Feature", "properties": { "name": "AP2_luca" }, "geometry": { "type": "Point", "coordinates": [ 7.9845425, 49.180511388888888 ] } },
{ "type": "Feature", "properties": { "name": "TP2_luca" }, "geometry": { "type": "Point", "coordinates": [ 8.216594722222222, 49.249173333333331 ] } },
{ "type": "Feature", "properties": { "name": "TP1_virgin" }, "geometry": { "type": "Point", "coordinates": [ 7.997601111111111, 49.614430277777778 ] } },
{ "type": "Feature", "properties": { "name": "AP2_virgin" }, "geometry": { "type": "Point", "coordinates": [ 6.995531944444444, 49.767100555555558 ] } },
{ "type": "Feature", "properties": { "name": "TP2_virgin" }, "geometry": { "type": "Point", "coordinates": [ 6.887678333333333, 49.475596666666668 ] } },
{ "type": "Feature", "properties": { "name": "TP1_angie" }, "geometry": { "type": "Point", "coordinates": [ 8.031398611111111, 48.603277222222225 ] } },
{ "type": "Feature", "properties": { "name": "AP2_angie" }, "geometry": { "type": "Point", "coordinates": [ 7.779789166666666, 48.132413333333332 ] } },
{ "type": "Feature", "properties": { "name": "TP2_angie" }, "geometry": { "type": "Point", "coordinates": [ 8.108812222222221, 48.053877222222219 ] } },
{ "type": "Feature", "properties": { "name": "RP_angie" }, "geometry": { "type": "Point", "coordinates": [ 8.224716666666668, 48.26848861111111 ] } }
]
}
