{
"type": "FeatureCollection",
"name": "Hospitals EDXX",
"crs": { "type": "name", "properties": { "name": "urn:ogc:def:crs:OGC:1.3:CRS84" } },
"features": [
    { "type": "Feature", "properties": { "name": "Hamelnpyrmont Sana" }, "geometry": { "type": "Point", "coordinates": [ 9.3509722222222, 52.1083333333330 ] } },
    { "type": "Feature", "properties": { "name": "Bad Oeynhausen" }, "geometry": { "type": "Point", "coordinates": [ 8.7953572222222, 52.1924961111110 ] } },
    { "type": "Feature", "properties": { "name": "Schaumburg Ev. Klinikum" }, "geometry": { "type": "Point", "coordinates": [ 9.1036111111111, 52.2655561111110 ] } },
    { "type": "Feature", "properties": { "name": "Osnabrueck Marienhospital" }, "geometry": { "type": "Point", "coordinates": [ 8.0557730555556, 52.2699872222220 ] } },
    { "type": "Feature", "properties": { "name": "Rheine LRZ" }, "geometry": { "type": "Point", "coordinates": [ 7.4333333333333, 52.2772222222220 ] } },
    { "type": "Feature", "properties": { "name": "Ibbenbueren" }, "geometry": { "type": "Point", "coordinates": [ 7.7144072222222, 52.2780411111110 ] } },
    { "type": "Feature", "properties": { "name": "Osnabrueck Klinikum" }, "geometry": { "type": "Point", "coordinates": [ 8.0047222222222, 52.2780561111110 ] } },
    { "type": "Feature", "properties": { "name": "Luebbecke Kreiskrankenhaus" }, "geometry": { "type": "Point", "coordinates": [ 8.6023300000000, 52.2960950000000 ] } },
    { "type": "Feature", "properties": { "name": "Diepenau Polipol" }, "geometry": { "type": "Point", "coordinates": [ 8.7119441666667, 52.4063891666670 ] } },
    { "type": "Feature", "properties": { "name": "Thuine Elisabeth Krankenhaus" }, "geometry": { "type": "Point", "coordinates": [ 7.4891111111111, 52.4973061111110 ] } },
    { "type": "Feature", "properties": { "name": "Damme Krankenhaus" }, "geometry": { "type": "Point", "coordinates": [ 8.1935850000000, 52.5209691666670 ] } },
    { "type": "Feature", "properties": { "name": "Lingen St. Bonifatius" }, "geometry": { "type": "Point", "coordinates": [ 7.3149061111111, 52.5251172222220 ] } },
    { "type": "Feature", "properties": { "name": "Nienburg Klinikum" }, "geometry": { "type": "Point", "coordinates": [ 9.2251941666667, 52.6354111111110 ] } },
    { "type": "Feature", "properties": { "name": "Meppen Ludmillenstift" }, "geometry": { "type": "Point", "coordinates": [ 7.2933333333333, 52.6886111111110 ] } },
    { "type": "Feature", "properties": { "name": "Bremen Links der Weser" }, "geometry": { "type": "Point", "coordinates": [ 8.8169441666667, 53.0352780555560 ] } },
    { "type": "Feature", "properties": { "name": "Bremen Mitte" }, "geometry": { "type": "Point", "coordinates": [ 8.8379441666667, 53.0750000000000 ] } },
    { "type": "Feature", "properties": { "name": "Rotenburg West Krankenhaus" }, "geometry": { "type": "Point", "coordinates": [ 9.4116672222222, 53.1052780555560 ] } },
    { "type": "Feature", "properties": { "name": "Oldenburg Klinikum" }, "geometry": { "type": "Point", "coordinates": [ 8.2198191666667, 53.1126141666670 ] } },
    { "type": "Feature", "properties": { "name": "Oldenburg Ev. Krankenhaus" }, "geometry": { "type": "Point", "coordinates": [ 8.2043891666667, 53.1428330555560 ] } },
    { "type": "Feature", "properties": { "name": "Bremennord Klinikum" }, "geometry": { "type": "Point", "coordinates": [ 8.5938891666667, 53.1827780555560 ] } },
    { "type": "Feature", "properties": { "name": "Jadelinie" }, "geometry": { "type": "Point", "coordinates": [ 8.2168350000000, 53.2173811111110 ] } },
    { "type": "Feature", "properties": { "name": "Leer Klinikum" }, "geometry": { "type": "Point", "coordinates": [ 7.4575172222222, 53.2363022222220 ] } },
    { "type": "Feature", "properties": { "name": "Westerstede" }, "geometry": { "type": "Point", "coordinates": [ 7.9160280555556, 53.2576672222220 ] } },
    { "type": "Feature", "properties": { "name": "Emden Hanssusemihl Krankenhaus" }, "geometry": { "type": "Point", "coordinates": [ 7.2141380555556, 53.3746961111110 ] } },
    { "type": "Feature", "properties": { "name": "Wesermarschklinik" }, "geometry": { "type": "Point", "coordinates": [ 8.4411141666667, 53.4550400000000 ] } },
    { "type": "Feature", "properties": { "name": "Sanderbusch Nordwestkrankenhaus" }, "geometry": { "type": "Point", "coordinates": [ 8.0086111111111, 53.5058330555560 ] } },
    { "type": "Feature", "properties": { "name": "Bremerhaven Klinikum" }, "geometry": { "type": "Point", "coordinates": [ 8.6354361111111, 53.5376561111110 ] } },
    { "type": "Feature", "properties": { "name": "Wilhelmshaven Klinikum" }, "geometry": { "type": "Point", "coordinates": [ 8.0805561111111, 53.5444444444440 ] } },
    { "type": "Feature", "properties": { "name": "Stade Elbe Klinikum" }, "geometry": { "type": "Point", "coordinates": [ 9.4443611111111, 53.5948061111110 ] } },
    { "type": "Feature", "properties": { "name": "Papenburg Marienkrankenhaus" }, "geometry": { "type": "Point", "coordinates": [ 7.3930561111111, 53.0741672222220 ] } },
    { "type": "Feature", "properties": { "name": "Neustadt RB Klinikum" }, "geometry": { "type": "Point", "coordinates": [ 9.4636941666667, 52.4943891666670 ] } },
    { "type": "Feature", "properties": { "name": "Wittmund Krankenhaus" }, "geometry": { "type": "Point", "coordinates": [ 7.7890830555556, 53.5713891666670 ] } },
    { "type": "Feature", "properties": { "name": "Hannover Nordstadt Klinikum" }, "geometry": { "type": "Point", "coordinates": [ 9.7155561111111, 52.3922222222220 ] } },
    { "type": "Feature", "properties": { "name": "Hannover Klinikum" }, "geometry": { "type": "Point", "coordinates": [ 9.7252311111111, 52.3592530555560 ] } },
    { "type": "Feature", "properties": { "name": "Kinderkrankenhaus auf der Bult" }, "geometry": { "type": "Point", "coordinates": [ 9.7793672222222, 52.3605830555560 ] } },
    { "type": "Feature", "properties": { "name": "Hannover Medhochschule" }, "geometry": { "type": "Point", "coordinates": [ 9.8065922222222, 52.3846972222220 ] } },
    { "type": "Feature", "properties": { "name": "Soltau Krankenhaus" }, "geometry": { "type": "Point", "coordinates": [ 9.8550561111111, 52.9895561111110 ] } },
    { "type": "Feature", "properties": { "name": "Buchholz Nordheide" }, "geometry": { "type": "Point", "coordinates": [ 9.8703891666667, 53.3336391666670 ] } },
    { "type": "Feature", "properties": { "name": "Bad Bramstedt" }, "geometry": { "type": "Point", "coordinates": [ 9.9032411111111, 53.9428522222220 ] } },
    { "type": "Feature", "properties": { "name": "Hamburg Altona" }, "geometry": { "type": "Point", "coordinates": [ 9.9127780555556, 53.5522222222220 ] } },
    { "type": "Feature", "properties": { "name": "Hamburgeppendorf" }, "geometry": { "type": "Point", "coordinates": [ 9.9738891666667, 53.5913891666670 ] } },
    { "type": "Feature", "properties": { "name": "Neumuenster Friedrich Ebert" }, "geometry": { "type": "Point", "coordinates": [ 9.9904500000000, 54.0650611111110 ] } },
    { "type": "Feature", "properties": { "name": "Hamburg Asklepios Klinik" }, "geometry": { "type": "Point", "coordinates": [ 10.016944166667, 53.5608330555560 ] } },
    { "type": "Feature", "properties": { "name": "Hamburg Barmbek" }, "geometry": { "type": "Point", "coordinates": [ 10.036667222222, 53.6069441666670 ] } },
    { "type": "Feature", "properties": { "name": "Hamburg Bundeswehrkrankenhaus" }, "geometry": { "type": "Point", "coordinates": [ 10.077808055556, 53.5968811111110 ] } },
    { "type": "Feature", "properties": { "name": "Celle" }, "geometry": { "type": "Point", "coordinates": [ 10.084969166667, 52.6287780555560 ] } },
    { "type": "Feature", "properties": { "name": "Kiel Uniklinikum" }, "geometry": { "type": "Point", "coordinates": [ 10.142778055556, 54.3312500000000 ] } },
    { "type": "Feature", "properties": { "name": "Hamburgoberg" }, "geometry": { "type": "Point", "coordinates": [ 10.173333333333, 53.5080561111110 ] } },
    { "type": "Feature", "properties": { "name": "Barsbuettel" }, "geometry": { "type": "Point", "coordinates": [ 10.197778055556, 53.5772222222220 ] } },
    { "type": "Feature", "properties": { "name": "Peine Klinikum" }, "geometry": { "type": "Point", "coordinates": [ 10.237916111111, 52.3023750000000 ] } },
    { "type": "Feature", "properties": { "name": "Geesthacht" }, "geometry": { "type": "Point", "coordinates": [ 10.385517222222, 53.4318030555560 ] } },
    { "type": "Feature", "properties": { "name": "Lueneburg Staedt Klinikum" }, "geometry": { "type": "Point", "coordinates": [ 10.396111111111, 53.2405561111110 ] } },
    { "type": "Feature", "properties": { "name": "Gifhorn Bundespolizei" }, "geometry": { "type": "Point", "coordinates": [ 10.510278055556, 52.4952780555560 ] } },
    { "type": "Feature", "properties": { "name": "Uelzen Klinikum" }, "geometry": { "type": "Point", "coordinates": [ 10.532778055556, 52.9733333333330 ] } },
    { "type": "Feature", "properties": { "name": "Wolfenbuettel Staedt Krankenhaus" }, "geometry": { "type": "Point", "coordinates": [ 10.534444444444, 52.1791672222220 ] } },
    { "type": "Feature", "properties": { "name": "Braunschweid Salzdahlemer Straße" }, "geometry": { "type": "Point", "coordinates": [ 10.546389166667, 52.2380561111110 ] } },
    { "type": "Feature", "properties": { "name": "Gifhorn Klinikum" }, "geometry": { "type": "Point", "coordinates": [ 10.549444444444, 52.4961111111110 ] } },
    { "type": "Feature", "properties": { "name": "Siblin" }, "geometry": { "type": "Point", "coordinates": [ 10.561944166667, 54.0350830555560 ] } },
    { "type": "Feature", "properties": { "name": "UKSH Boden" }, "geometry": { "type": "Point", "coordinates": [ 10.705083055556, 53.8332222222220 ] } },
    { "type": "Feature", "properties": { "name": "UKSH Dachlandeplatz" }, "geometry": { "type": "Point", "coordinates": [ 10.709303055556, 53.8352472222220 ] } },
    { "type": "Feature", "properties": { "name": "Wolfsburg Klinikum" }, "geometry": { "type": "Point", "coordinates": [ 10.768666666667, 52.4121961111110 ] } },
    { "type": "Feature", "properties": { "name": "Neustadt Holstein" }, "geometry": { "type": "Point", "coordinates": [ 10.801389166667, 54.1000000000000 ] } },
    { "type": "Feature", "properties": { "name": "Helmstedt Helios Klinik" }, "geometry": { "type": "Point", "coordinates": [ 11.000556111111, 52.2313891666670 ] } },
    { "type": "Feature", "properties": { "name": "Winsen Luhe Krankenhaus" }, "geometry": { "type": "Point", "coordinates": [ 10.199261111111, 53.3486030555560 ] } },
    { "type": "Feature", "properties": { "name": "Hamburgharburg" }, "geometry": { "type": "Point", "coordinates": [ 9.9507930555556, 53.4597600000000 ] } },
    { "type": "Feature", "properties": { "name": "Hildesheim Helios" }, "geometry": { "type": "Point", "coordinates": [ 9.9784391666667, 52.1505641666670 ] } },
    { "type": "Feature", "properties": { "name": "Beverungen Nord" }, "geometry": { "type": "Point", "coordinates": [ 9.3813822222222, 51.6739441666670 ] } },
    { "type": "Feature", "properties": { "name": "Fuldatal Ihringhausen" }, "geometry": { "type": "Point", "coordinates": [ 9.5027441666667, 51.3596000000000 ] } },
    { "type": "Feature", "properties": { "name": "Hann Muenden Klinik" }, "geometry": { "type": "Point", "coordinates": [ 9.6583333333333, 51.3975000000000 ] } },
    { "type": "Feature", "properties": { "name": "Harste" }, "geometry": { "type": "Point", "coordinates": [ 9.8588750000000, 51.6026611111110 ] } },
    { "type": "Feature", "properties": { "name": "Goettingen Klinikum" }, "geometry": { "type": "Point", "coordinates": [ 9.9430561111111, 51.5519441666670 ] } },
    { "type": "Feature", "properties": { "name": "Northeim Albert" }, "geometry": { "type": "Point", "coordinates": [ 9.9789461111111, 51.7306491666670 ] } },
    { "type": "Feature", "properties": { "name": "Heiligenstadt Heilbad" }, "geometry": { "type": "Point", "coordinates": [ 10.140650000000, 51.3768500000000 ] } },
    { "type": "Feature", "properties": { "name": "Abbenrode" }, "geometry": { "type": "Point", "coordinates": [ 10.625914166667, 51.9316961111110 ] } },
    { "type": "Feature", "properties": { "name": "Gross Kreutz" }, "geometry": { "type": "Point", "coordinates": [ 12.784725000000, 52.4105080555560 ] } },
    { "type": "Feature", "properties": { "name": "Nauen Havelland Klink" }, "geometry": { "type": "Point", "coordinates": [ 12.874444444444, 52.5980561111110 ] } },
    { "type": "Feature", "properties": { "name": "Demmin" }, "geometry": { "type": "Point", "coordinates": [ 13.043263055556, 53.9027980555560 ] } },
    { "type": "Feature", "properties": { "name": "Potsdam Ernst v. Bergmann" }, "geometry": { "type": "Point", "coordinates": [ 13.065556111111, 52.4002780555560 ] } },
    { "type": "Feature", "properties": { "name": "Stralsund" }, "geometry": { "type": "Point", "coordinates": [ 13.081219166667, 54.3299580555560 ] } },
    { "type": "Feature", "properties": { "name": "Hiddensee" }, "geometry": { "type": "Point", "coordinates": [ 13.106703055556, 54.5709972222220 ] } },
    { "type": "Feature", "properties": { "name": "Charite Benjamin Franklin" }, "geometry": { "type": "Point", "coordinates": [ 13.322856111111, 52.4413422222220 ] } },
    { "type": "Feature", "properties": { "name": "Mellensee" }, "geometry": { "type": "Point", "coordinates": [ 13.379562222222, 52.1616750000000 ] } },
    { "type": "Feature", "properties": { "name": "Berlin Buch" }, "geometry": { "type": "Point", "coordinates": [ 13.510301111111, 52.6300341666670 ] } },
    { "type": "Feature", "properties": { "name": "Ahrensfelde" }, "geometry": { "type": "Point", "coordinates": [ 13.576000000000, 52.6002391666670 ] } },
    { "type": "Feature", "properties": { "name": "Kalrsburg" }, "geometry": { "type": "Point", "coordinates": [ 13.610696111111, 53.9700741666670 ] } },
    { "type": "Feature", "properties": { "name": "A01 OSS" }, "geometry": { "type": "Point", "coordinates": [ 13.677125000000, 54.8174691666670 ] } },
    { "type": "Feature", "properties": { "name": "Pasewalk" }, "geometry": { "type": "Point", "coordinates": [ 13.986196111111, 53.4856900000000 ] } },
    { "type": "Feature", "properties": { "name": "Bad Saarow Helios" }, "geometry": { "type": "Point", "coordinates": [ 14.060333333333, 52.2843333333330 ] } },
    { "type": "Feature", "properties": { "name": "Schwedt an der Oder Raffinerie" }, "geometry": { "type": "Point", "coordinates": [ 14.225186111111, 53.0918222222220 ] } },
    { "type": "Feature", "properties": { "name": "Schwedt an der Oder Klinikum" }, "geometry": { "type": "Point", "coordinates": [ 14.276086111111, 53.0535972222220 ] } },
    { "type": "Feature", "properties": { "name": "Frankfurt an der Oder Klinikum" }, "geometry": { "type": "Point", "coordinates": [ 14.480397222222, 52.3008311111110 ] } },
    { "type": "Feature", "properties": { "name": "Achenbachkrankenhaus" }, "geometry": { "type": "Point", "coordinates": [ 13.627880000000, 52.3046830555560 ] } },
    { "type": "Feature", "properties": { "name": "Greifswald Unimedizin" }, "geometry": { "type": "Point", "coordinates": [ 13.408010000000, 54.0888500000000 ] } },
    { "type": "Feature", "properties": { "name": "Berlin Unfallkrankenhaus" }, "geometry": { "type": "Point", "coordinates": [ 13.567753055556, 52.5196400000000 ] } },
    { "type": "Feature", "properties": { "name": "Charite Virchowklinikum" }, "geometry": { "type": "Point", "coordinates": [ 13.338383055556, 52.5426472222220 ] } },
    { "type": "Feature", "properties": { "name": "Eberswalde Krankenhaus" }, "geometry": { "type": "Point", "coordinates": [ 13.790278055556, 52.8283333333330 ] } },
    { "type": "Feature", "properties": { "name": "Bernau Krankenhaus" }, "geometry": { "type": "Point", "coordinates": [ 13.581389166667, 52.6838891666670 ] } },
    { "type": "Feature", "properties": { "name": "Eisenhuettenstadt Staedt Krankenhaus" }, "geometry": { "type": "Point", "coordinates": [ 14.623162222222, 52.1405880555560 ] } },
    { "type": "Feature", "properties": { "name": "Luebben Spreewaldklinik" }, "geometry": { "type": "Point", "coordinates": [ 13.873862222222, 51.9432572222220 ] } },
    { "type": "Feature", "properties": { "name": "Neubrandenburg Klinikum" }, "geometry": { "type": "Point", "coordinates": [ 13.291048055556, 53.5448830555560 ] } },
    { "type": "Feature", "properties": { "name": "Berlin Humboldtkrankenhaus" }, "geometry": { "type": "Point", "coordinates": [ 13.308449166667, 52.5904161111110 ] } },
    { "type": "Feature", "properties": { "name": "Neustrelitz LRZ" }, "geometry": { "type": "Point", "coordinates": [ 13.052002222222, 53.3820080555560 ] } },
    { "type": "Feature", "properties": { "name": "Neuruppin Ruppiner Kliniken" }, "geometry": { "type": "Point", "coordinates": [ 12.796131111111, 52.9038891666670 ] } },
    { "type": "Feature", "properties": { "name": "WK OSS" }, "geometry": { "type": "Point", "coordinates": [ 14.074274166667, 54.8343780555560 ] } },
    { "type": "Feature", "properties": { "name": "Arkona" }, "geometry": { "type": "Point", "coordinates": [ 14.098206111111, 54.7868250000000 ] } },
    { "type": "Feature", "properties": { "name": "Luckenwalde" }, "geometry": { "type": "Point", "coordinates": [ 13.183584166667, 52.0991791666670 ] } },
    { "type": "Feature", "properties": { "name": "Teupitz Asklepios" }, "geometry": { "type": "Point", "coordinates": [ 13.632694166667, 52.1221391666670 ] } },
    { "type": "Feature", "properties": { "name": "Prenzlau Kreiskrankenhaus" }, "geometry": { "type": "Point", "coordinates": [ 13.866278055556, 53.3338891666670 ] } },
    { "type": "Feature", "properties": { "name": "Angermuende" }, "geometry": { "type": "Point", "coordinates": [ 14.001644166667, 52.9997061111110 ] } },
    { "type": "Feature", "properties": { "name": "Torgau Kreiskrankenhaus" }, "geometry": { "type": "Point", "coordinates": [ 12.983611111111, 51.5612780555560 ] } },
    { "type": "Feature", "properties": { "name": "Cottbus Carlthiemklinikum" }, "geometry": { "type": "Point", "coordinates": [ 14.321944166667, 51.7433333333330 ] } },
    { "type": "Feature", "properties": { "name": "Herzberg Klinikum" }, "geometry": { "type": "Point", "coordinates": [ 13.206928055556, 51.6860541666670 ] } },
    { "type": "Feature", "properties": { "name": "Sommerland" }, "geometry": { "type": "Point", "coordinates": [ 9.5494444444444, 53.7924444444440 ] } },
    { "type": "Feature", "properties": { "name": "Itzehoe Klinikum" }, "geometry": { "type": "Point", "coordinates": [ 9.5032500000000, 53.9421922222220 ] } },
    { "type": "Feature", "properties": { "name": "BKRZ01 Windfarm" }, "geometry": { "type": "Point", "coordinates": [ 6.5656672222222, 53.9641672222220 ] } },
    { "type": "Feature", "properties": { "name": "Dolwin Beta" }, "geometry": { "type": "Point", "coordinates": [ 6.9234922222222, 53.9782061111110 ] } },
    { "type": "Feature", "properties": { "name": "Nordsee One" }, "geometry": { "type": "Point", "coordinates": [ 6.8362172222222, 53.9822500000000 ] } },
    { "type": "Feature", "properties": { "name": "Alpha Ventus" }, "geometry": { "type": "Point", "coordinates": [ 6.6233172222222, 53.9999830555560 ] } },
    { "type": "Feature", "properties": { "name": "FINO1" }, "geometry": { "type": "Point", "coordinates": [ 6.5876672222222, 54.0143333333330 ] } },
    { "type": "Feature", "properties": { "name": "GOW01Z01" }, "geometry": { "type": "Point", "coordinates": [ 7.0087922222222, 54.0248211111110 ] } },
    { "type": "Feature", "properties": { "name": "Merkur" }, "geometry": { "type": "Point", "coordinates": [ 6.5609530555556, 54.0373500000000 ] } },
    { "type": "Feature", "properties": { "name": "GOW02Z01" }, "geometry": { "type": "Point", "coordinates": [ 7.0383780555556, 54.0557172222220 ] } },
    { "type": "Feature", "properties": { "name": "Helgoland Suedhafen" }, "geometry": { "type": "Point", "coordinates": [ 7.8900172222222, 54.1751111111110 ] } },
    { "type": "Feature", "properties": { "name": "Heide Kreiskrankenhaus" }, "geometry": { "type": "Point", "coordinates": [ 9.0801861111111, 54.2001611111110 ] } },
    { "type": "Feature", "properties": { "name": "M00" }, "geometry": { "type": "Point", "coordinates": [ 7.6997111111111, 54.3993111111110 ] } },
    { "type": "Feature", "properties": { "name": "Helwin Alpha" }, "geometry": { "type": "Point", "coordinates": [ 7.7399641666667, 54.4521250000000 ] } },
    { "type": "Feature", "properties": { "name": "Husum Kreiskrankenhaus" }, "geometry": { "type": "Point", "coordinates": [ 9.0484530555556, 54.4832080555560 ] } },
    { "type": "Feature", "properties": { "name": "Amrumbank" }, "geometry": { "type": "Point", "coordinates": [ 7.7348922222222, 54.5199111111110 ] } },
    { "type": "Feature", "properties": { "name": "Schleswig Helios Klinikum" }, "geometry": { "type": "Point", "coordinates": [ 9.5695972222222, 54.5219780555560 ] } },
    { "type": "Feature", "properties": { "name": "Flensburg" }, "geometry": { "type": "Point", "coordinates": [ 9.4277780555556, 54.7872222222220 ] } },
    { "type": "Feature", "properties": { "name": "Niebuell" }, "geometry": { "type": "Point", "coordinates": [ 8.8450000000000, 54.7939722222220 ] } },
    { "type": "Feature", "properties": { "name": "Borkum Inselkrankenhaus" }, "geometry": { "type": "Point", "coordinates": [ 6.6701311111111, 53.5848850000000 ] } },
    { "type": "Feature", "properties": { "name": "Gardelegen Krankenhaus" }, "geometry": { "type": "Point", "coordinates": [ 11.380333333333, 52.5230000000000 ] } },
    { "type": "Feature", "properties": { "name": "Schwerin Klinikum" }, "geometry": { "type": "Point", "coordinates": [ 11.406831111111, 53.6526391666670 ] } },
    { "type": "Feature", "properties": { "name": "Wismar Staedt Krankenhaus" }, "geometry": { "type": "Point", "coordinates": [ 11.439583055556, 53.8833611111110 ] } },
    { "type": "Feature", "properties": { "name": "Magdeburg Klinikum" }, "geometry": { "type": "Point", "coordinates": [ 11.584500000000, 52.1585000000000 ] } },
    { "type": "Feature", "properties": { "name": "Barleben" }, "geometry": { "type": "Point", "coordinates": [ 11.606872222222, 52.1902800000000 ] } },
    { "type": "Feature", "properties": { "name": "Magdeburg Uni Boden" }, "geometry": { "type": "Point", "coordinates": [ 11.612500000000, 52.1043333333330 ] } },
    { "type": "Feature", "properties": { "name": "Magdeburg Uni Dach" }, "geometry": { "type": "Point", "coordinates": [ 11.619806111111, 52.1021330555560 ] } },
    { "type": "Feature", "properties": { "name": "Stendal Johanniterkrankenhaus" }, "geometry": { "type": "Point", "coordinates": [ 11.853833055556, 52.6116941666670 ] } },
    { "type": "Feature", "properties": { "name": "Perleberg Kreiskrankenhaus Prignitz" }, "geometry": { "type": "Point", "coordinates": [ 11.874992222222, 53.0741430555560 ] } },
    { "type": "Feature", "properties": { "name": "Bad Doberan" }, "geometry": { "type": "Point", "coordinates": [ 11.906292222222, 54.0900672222220 ] } },
    { "type": "Feature", "properties": { "name": "Rostock Unimedizin" }, "geometry": { "type": "Point", "coordinates": [ 12.101630000000, 54.0851300000000 ] } },
    { "type": "Feature", "properties": { "name": "Hohe Duene" }, "geometry": { "type": "Point", "coordinates": [ 12.103944166667, 54.1792180555560 ] } },
    { "type": "Feature", "properties": { "name": "Rostock Suedstadt" }, "geometry": { "type": "Point", "coordinates": [ 12.107546111111, 54.0705730555560 ] } },
    { "type": "Feature", "properties": { "name": "Guestrow Klinikum" }, "geometry": { "type": "Point", "coordinates": [ 12.199444444444, 53.8119441666670 ] } },
    { "type": "Feature", "properties": { "name": "Dummerstorf" }, "geometry": { "type": "Point", "coordinates": [ 12.210753055556, 54.0383500000000 ] } },
    { "type": "Feature", "properties": { "name": "Plau am See Fachkrankenhaus" }, "geometry": { "type": "Point", "coordinates": [ 12.285569166667, 53.4780811111110 ] } },
    { "type": "Feature", "properties": { "name": "Kyritz Klinikum" }, "geometry": { "type": "Point", "coordinates": [ 12.388786111111, 52.9480811111110 ] } },
    { "type": "Feature", "properties": { "name": "BB Asklepios" }, "geometry": { "type": "Point", "coordinates": [ 12.481528055556, 52.4250000000000 ] } },
    { "type": "Feature", "properties": { "name": "Brandenburg Klinikum" }, "geometry": { "type": "Point", "coordinates": [ 12.544233055556, 52.4151730555560 ] } },
    { "type": "Feature", "properties": { "name": "Teterow Krankenhaus" }, "geometry": { "type": "Point", "coordinates": [ 12.570556111111, 53.7777780555560 ] } },
    { "type": "Feature", "properties": { "name": "Bad Belzig Johanniterkrankenhaus" }, "geometry": { "type": "Point", "coordinates": [ 12.598194166667, 52.1408641666670 ] } },
    { "type": "Feature", "properties": { "name": "Altenweddingen" }, "geometry": { "type": "Point", "coordinates": [ 11.509772222222, 52.0095411111110 ] } },
    { "type": "Feature", "properties": { "name": "Coswig Mediclin Herzzentrum" }, "geometry": { "type": "Point", "coordinates": [ 12.476222222222, 51.8783061111110 ] } },
    { "type": "Feature", "properties": { "name": "Immenstadt EADS GMBH" }, "geometry": { "type": "Point", "coordinates": [ 9.3914411111111, 47.6696722222220 ] } },
    { "type": "Feature", "properties": { "name": "Kemptendurach" }, "geometry": { "type": "Point", "coordinates": [ 10.340142222222, 47.6913722222220 ] } },
    { "type": "Feature", "properties": { "name": "Kempten Allgaeu Klinikum" }, "geometry": { "type": "Point", "coordinates": [ 10.302556111111, 47.7318811111110 ] } },
    { "type": "Feature", "properties": { "name": "Kisslegg" }, "geometry": { "type": "Point", "coordinates": [ 9.8919250000000, 47.7688330555560 ] } },
    { "type": "Feature", "properties": { "name": "Ravensburg St. Elisabeth" }, "geometry": { "type": "Point", "coordinates": [ 9.6210291666667, 47.7879722222220 ] } },
    { "type": "Feature", "properties": { "name": "Klinikum Weissenhorn" }, "geometry": { "type": "Point", "coordinates": [ 10.156764166667, 48.3121222222220 ] } },
    { "type": "Feature", "properties": { "name": "Ulm Uniklinikum" }, "geometry": { "type": "Point", "coordinates": [ 9.9513891666667, 48.4225000000000 ] } },
    { "type": "Feature", "properties": { "name": "BWK Ulm Boden" }, "geometry": { "type": "Point", "coordinates": [ 9.9454691666667, 48.4265191666670 ] } },
    { "type": "Feature", "properties": { "name": "Friedrichshafen Klinikum" }, "geometry": { "type": "Point", "coordinates": [ 9.4285500000000, 47.6727672222220 ] } },
    { "type": "Feature", "properties": { "name": "Ehingen Gesundheitszentrum" }, "geometry": { "type": "Point", "coordinates": [ 9.7191700000000, 48.2791700000000 ] } },
    { "type": "Feature", "properties": { "name": "Tettnang Kreiskrankenhaus" }, "geometry": { "type": "Point", "coordinates": [ 9.5982811111111, 47.6716672222220 ] } },
    { "type": "Feature", "properties": { "name": "Immenstadt Klinikum" }, "geometry": { "type": "Point", "coordinates": [ 10.228111111111, 47.5615691666670 ] } },
    { "type": "Feature", "properties": { "name": "Guenzburg Bezirkskrankenhaus" }, "geometry": { "type": "Point", "coordinates": [ 10.291178055556, 48.4562891666670 ] } },
    { "type": "Feature", "properties": { "name": "Memmingen Klinikum" }, "geometry": { "type": "Point", "coordinates": [ 10.168769166667, 47.9826472222220 ] } },
    { "type": "Feature", "properties": { "name": "Ulm BWK Dach" }, "geometry": { "type": "Point", "coordinates": [ 9.9477080555556, 48.4250311111110 ] } },
    { "type": "Feature", "properties": { "name": "Biberach an der Riss Sana Kliniken" }, "geometry": { "type": "Point", "coordinates": [ 9.7793391666667, 48.1131030555560 ] } },
    { "type": "Feature", "properties": { "name": "Gotha Helios Kreiskrankenhaus" }, "geometry": { "type": "Point", "coordinates": [ 10.678889166667, 50.9288891666670 ] } },
    { "type": "Feature", "properties": { "name": "Suhl SRH Zentralklinikum" }, "geometry": { "type": "Point", "coordinates": [ 10.710386111111, 50.6030422222220 ] } },
    { "type": "Feature", "properties": { "name": "Hildburghausen Helios" }, "geometry": { "type": "Point", "coordinates": [ 10.747614166667, 50.4289500000000 ] } },
    { "type": "Feature", "properties": { "name": "Nordhausen" }, "geometry": { "type": "Point", "coordinates": [ 10.794835000000, 51.5138011111110 ] } },
    { "type": "Feature", "properties": { "name": "Arnstedt Kreiskrankenhaus" }, "geometry": { "type": "Point", "coordinates": [ 10.940750000000, 50.8394722222220 ] } },
    { "type": "Feature", "properties": { "name": "Erfurt Helios Klinikum" }, "geometry": { "type": "Point", "coordinates": [ 11.012047222222, 50.9943280555560 ] } },
    { "type": "Feature", "properties": { "name": "Donauwoerth" }, "geometry": { "type": "Point", "coordinates": [ 10.769259166667, 48.7074850000000 ] } },
    { "type": "Feature", "properties": { "name": "Nuernbergnord" }, "geometry": { "type": "Point", "coordinates": [ 11.062536111111, 49.4631691666670 ] } },
    { "type": "Feature", "properties": { "name": "Roth" }, "geometry": { "type": "Point", "coordinates": [ 11.100125000000, 49.2173472222220 ] } },
    { "type": "Feature", "properties": { "name": "Garmisch Partenkirchen Klinikum" }, "geometry": { "type": "Point", "coordinates": [ 11.128996111111, 47.4843780555560 ] } },
    { "type": "Feature", "properties": { "name": "Hiloplstein" }, "geometry": { "type": "Point", "coordinates": [ 11.184764166667, 49.1853500000000 ] } },
    { "type": "Feature", "properties": { "name": "Dippenricht" }, "geometry": { "type": "Point", "coordinates": [ 11.363626111111, 49.2536761111110 ] } },
    { "type": "Feature", "properties": { "name": "Ingolstadt Klinikum" }, "geometry": { "type": "Point", "coordinates": [ 11.372556111111, 48.7704722222220 ] } },
    { "type": "Feature", "properties": { "name": "Dachau Klinikum" }, "geometry": { "type": "Point", "coordinates": [ 11.429333333333, 48.2656672222220 ] } },
    { "type": "Feature", "properties": { "name": "Bayreuth Klinikum" }, "geometry": { "type": "Point", "coordinates": [ 11.535556111111, 49.9444444444440 ] } },
    { "type": "Feature", "properties": { "name": "Muenchen Sued" }, "geometry": { "type": "Point", "coordinates": [ 11.548333333333, 48.1030280555560 ] } },
    { "type": "Feature", "properties": { "name": "Deutsches Herzzentrum" }, "geometry": { "type": "Point", "coordinates": [ 11.548348055556, 48.1526950000000 ] } },
    { "type": "Feature", "properties": { "name": "Muenchen Krankenhaus Harlaching" }, "geometry": { "type": "Point", "coordinates": [ 11.559900000000, 48.0835500000000 ] } },
    { "type": "Feature", "properties": { "name": "Ottobrunn" }, "geometry": { "type": "Point", "coordinates": [ 11.653674166667, 48.0481150000000 ] } },
    { "type": "Feature", "properties": { "name": "Roding Firma Muehlbauer" }, "geometry": { "type": "Point", "coordinates": [ 12.502803055556, 49.2184030555560 ] } },
    { "type": "Feature", "properties": { "name": "Roding Dachlandeplatz" }, "geometry": { "type": "Point", "coordinates": [ 12.505181111111, 49.2152972222220 ] } },
    { "type": "Feature", "properties": { "name": "Straubing St. Elisabeth" }, "geometry": { "type": "Point", "coordinates": [ 12.590786111111, 48.8859172222220 ] } },
    { "type": "Feature", "properties": { "name": "Deggendorf Donauisar" }, "geometry": { "type": "Point", "coordinates": [ 12.970869166667, 48.8392611111110 ] } },
    { "type": "Feature", "properties": { "name": "FFB Kreisklinik" }, "geometry": { "type": "Point", "coordinates": [ 11.259064166667, 48.1804722222220 ] } },
    { "type": "Feature", "properties": { "name": "Klinikum Grosshardern" }, "geometry": { "type": "Point", "coordinates": [ 11.465331111111, 48.1105461111110 ] } },
    { "type": "Feature", "properties": { "name": "Regensburg Uni" }, "geometry": { "type": "Point", "coordinates": [ 12.091944166667, 48.9844444444440 ] } },
    { "type": "Feature", "properties": { "name": "Metten" }, "geometry": { "type": "Point", "coordinates": [ 12.935000000000, 48.8596672222220 ] } },
    { "type": "Feature", "properties": { "name": "Klinikum Bogenhausen" }, "geometry": { "type": "Point", "coordinates": [ 11.626172222222, 48.1543072222220 ] } },
    { "type": "Feature", "properties": { "name": "BGU Murnau" }, "geometry": { "type": "Point", "coordinates": [ 11.215546111111, 47.6720750000000 ] } },
    { "type": "Feature", "properties": { "name": "Traunstein Kreiskrankenhaus" }, "geometry": { "type": "Point", "coordinates": [ 12.631111111111, 47.8741672222220 ] } },
    { "type": "Feature", "properties": { "name": "Ebersberg Kreisklinik" }, "geometry": { "type": "Point", "coordinates": [ 11.958539166667, 48.0812422222220 ] } },
    { "type": "Feature", "properties": { "name": "Regensburg Uni SL1" }, "geometry": { "type": "Point", "coordinates": [ 12.092333333333, 48.9878330555560 ] } },
    { "type": "Feature", "properties": { "name": "Agatharied Krankenhaus" }, "geometry": { "type": "Point", "coordinates": [ 11.828333333333, 47.7683333333330 ] } },
    { "type": "Feature", "properties": { "name": "Berchtesgaden Resort" }, "geometry": { "type": "Point", "coordinates": [ 13.046752222222, 47.6345950000000 ] } },
    { "type": "Feature", "properties": { "name": "Vogtareuth Schoen Klinik" }, "geometry": { "type": "Point", "coordinates": [ 12.188985000000, 47.9467611111110 ] } },
    { "type": "Feature", "properties": { "name": "Oberschleissheim" }, "geometry": { "type": "Point", "coordinates": [ 11.565418055556, 48.2379491666670 ] } },
    { "type": "Feature", "properties": { "name": "Schwabing Staedt" }, "geometry": { "type": "Point", "coordinates": [ 11.577546111111, 48.1709572222220 ] } },
    { "type": "Feature", "properties": { "name": "Rosenheim Klinikum" }, "geometry": { "type": "Point", "coordinates": [ 12.132254166667, 47.8604111111110 ] } },
    { "type": "Feature", "properties": { "name": "Viechtach Kreiskrankenhaus" }, "geometry": { "type": "Point", "coordinates": [ 12.874122222222, 49.0855811111110 ] } },
    { "type": "Feature", "properties": { "name": "Passau Kinikum" }, "geometry": { "type": "Point", "coordinates": [ 13.444722222222, 48.5636111111110 ] } },
    { "type": "Feature", "properties": { "name": "Fuessen Klinikum" }, "geometry": { "type": "Point", "coordinates": [ 10.707063055556, 47.5669430555560 ] } },
    { "type": "Feature", "properties": { "name": "Muenchen RD Isar" }, "geometry": { "type": "Point", "coordinates": [ 11.600694166667, 48.1360261111110 ] } },
    { "type": "Feature", "properties": { "name": "Pullenreuth" }, "geometry": { "type": "Point", "coordinates": [ 11.992333333333, 49.9106111111110 ] } },
    { "type": "Feature", "properties": { "name": "Amberg Klinikum St. Marien" }, "geometry": { "type": "Point", "coordinates": [ 11.866889166667, 49.4483750000000 ] } },
    { "type": "Feature", "properties": { "name": "Weiden Klinikum" }, "geometry": { "type": "Point", "coordinates": [ 12.166389166667, 49.6817972222220 ] } },
    { "type": "Feature", "properties": { "name": "Lichtenfels Klinikum" }, "geometry": { "type": "Point", "coordinates": [ 11.081583055556, 50.1388611111110 ] } },
    { "type": "Feature", "properties": { "name": "Waldsassen" }, "geometry": { "type": "Point", "coordinates": [ 12.316267222222, 50.0103780555560 ] } },
    { "type": "Feature", "properties": { "name": "Pegnitz" }, "geometry": { "type": "Point", "coordinates": [ 11.624267222222, 49.7639061111110 ] } },
    { "type": "Feature", "properties": { "name": "Mistelgau" }, "geometry": { "type": "Point", "coordinates": [ 11.464167222222, 49.9061111111110 ] } },
    { "type": "Feature", "properties": { "name": "Erlangen Uniklinikum" }, "geometry": { "type": "Point", "coordinates": [ 11.011132222222, 49.6000661111110 ] } },
    { "type": "Feature", "properties": { "name": "Aerodynamic Iberler" }, "geometry": { "type": "Point", "coordinates": [ 11.344331111111, 49.2066441666670 ] } },
    { "type": "Feature", "properties": { "name": "Augsburg Klinikum" }, "geometry": { "type": "Point", "coordinates": [ 10.837767222222, 48.3845000000000 ] } },
    { "type": "Feature", "properties": { "name": "Roehrsdorf" }, "geometry": { "type": "Point", "coordinates": [ 12.866167222222, 50.8625000000000 ] } },
    { "type": "Feature", "properties": { "name": "Oschatz Collmklinik" }, "geometry": { "type": "Point", "coordinates": [ 13.114017222222, 51.2918161111110 ] } },
    { "type": "Feature", "properties": { "name": "Freiberg Kreiskrankenhaus" }, "geometry": { "type": "Point", "coordinates": [ 13.351904166667, 50.9202661111110 ] } },
    { "type": "Feature", "properties": { "name": "Elsterwerda Krankenhaus" }, "geometry": { "type": "Point", "coordinates": [ 13.522164166667, 51.4556230555560 ] } },
    { "type": "Feature", "properties": { "name": "Coswig Fachkrankenhaus" }, "geometry": { "type": "Point", "coordinates": [ 13.593103055556, 51.1318791666670 ] } },
    { "type": "Feature", "properties": { "name": "Freital Kreiskrankenhaus" }, "geometry": { "type": "Point", "coordinates": [ 13.645465000000, 50.9918222222220 ] } },
    { "type": "Feature", "properties": { "name": "Elbepark" }, "geometry": { "type": "Point", "coordinates": [ 13.694027222222, 51.0837672222220 ] } },
    { "type": "Feature", "properties": { "name": "Dresden Uniklinikum" }, "geometry": { "type": "Point", "coordinates": [ 13.780000000000, 51.0575000000000 ] } },
    { "type": "Feature", "properties": { "name": "Lausitzring MC" }, "geometry": { "type": "Point", "coordinates": [ 13.924511111111, 51.5319172222220 ] } },
    { "type": "Feature", "properties": { "name": "Pirna Klinikum" }, "geometry": { "type": "Point", "coordinates": [ 13.952425000000, 50.9586111111110 ] } },
    { "type": "Feature", "properties": { "name": "Senftenberg Ackerstraße" }, "geometry": { "type": "Point", "coordinates": [ 13.988211111111, 51.5306530555560 ] } },
    { "type": "Feature", "properties": { "name": "Senftenberg Klinikbereich" }, "geometry": { "type": "Point", "coordinates": [ 14.000456111111, 51.5280361111110 ] } },
    { "type": "Feature", "properties": { "name": "Sebnitz Kreiskrankenhaus" }, "geometry": { "type": "Point", "coordinates": [ 14.268333333333, 50.9827780555560 ] } },
    { "type": "Feature", "properties": { "name": "Lausitzer Seenland" }, "geometry": { "type": "Point", "coordinates": [ 14.273544166667, 51.4422941666670 ] } },
    { "type": "Feature", "properties": { "name": "Spremberg" }, "geometry": { "type": "Point", "coordinates": [ 14.407000000000, 51.5689800000000 ] } },
    { "type": "Feature", "properties": { "name": "Bautzen Krankenhaus" }, "geometry": { "type": "Point", "coordinates": [ 14.430389166667, 51.1850561111110 ] } },
    { "type": "Feature", "properties": { "name": "Goerlitz Staedt Klinikum" }, "geometry": { "type": "Point", "coordinates": [ 14.969667222222, 51.1611222222220 ] } },
    { "type": "Feature", "properties": { "name": "Friedrichstadt Krankenhaus" }, "geometry": { "type": "Point", "coordinates": [ 13.716089166667, 51.0584172222220 ] } },
    { "type": "Feature", "properties": { "name": "Zschopau Klinikum" }, "geometry": { "type": "Point", "coordinates": [ 13.080003055556, 50.7337941666670 ] } },
    { "type": "Feature", "properties": { "name": "Elblandkliniken" }, "geometry": { "type": "Point", "coordinates": [ 13.505833055556, 51.1750000000000 ] } },
    { "type": "Feature", "properties": { "name": "Chemnitz Klinikum" }, "geometry": { "type": "Point", "coordinates": [ 12.885267222222, 50.8457141666670 ] } },
    { "type": "Feature", "properties": { "name": "Oggenhausen" }, "geometry": { "type": "Point", "coordinates": [ 10.230191111111, 48.6687341666670 ] } },
    { "type": "Feature", "properties": { "name": "Heidenheim Klinikum" }, "geometry": { "type": "Point", "coordinates": [ 10.138864166667, 48.6727311111110 ] } },
    { "type": "Feature", "properties": { "name": "Aalen Ostalbklinikum" }, "geometry": { "type": "Point", "coordinates": [ 10.085763055556, 48.8498230555560 ] } },
    { "type": "Feature", "properties": { "name": "Ellenberg Schweizerhof" }, "geometry": { "type": "Point", "coordinates": [ 10.209366111111, 48.9921900000000 ] } },
    { "type": "Feature", "properties": { "name": "Dinkelsbuehl" }, "geometry": { "type": "Point", "coordinates": [ 10.401581111111, 49.0659441666670 ] } },
    { "type": "Feature", "properties": { "name": "Sonneberg Regiomed Klinik" }, "geometry": { "type": "Point", "coordinates": [ 11.162256111111, 50.3540191666670 ] } },
    { "type": "Feature", "properties": { "name": "Bad Berka Zentral Boden" }, "geometry": { "type": "Point", "coordinates": [ 11.263875000000, 50.8899111111110 ] } },
    { "type": "Feature", "properties": { "name": "Sangerhausen Krankenhaus" }, "geometry": { "type": "Point", "coordinates": [ 11.309683055556, 51.4715500000000 ] } },
    { "type": "Feature", "properties": { "name": "Weimar Sophien Hufeland" }, "geometry": { "type": "Point", "coordinates": [ 11.322025000000, 50.9607750000000 ] } },
    { "type": "Feature", "properties": { "name": "Saalfeld Klinikum" }, "geometry": { "type": "Point", "coordinates": [ 11.342111111111, 50.6439391666670 ] } },
    { "type": "Feature", "properties": { "name": "Eisleben Helios" }, "geometry": { "type": "Point", "coordinates": [ 11.540917222222, 51.5336391666670 ] } },
    { "type": "Feature", "properties": { "name": "Jena Klinikum" }, "geometry": { "type": "Point", "coordinates": [ 11.619167222222, 50.8866672222220 ] } },
    { "type": "Feature", "properties": { "name": "Bernburg Klinikum" }, "geometry": { "type": "Point", "coordinates": [ 11.735000000000, 51.7816672222220 ] } },
    { "type": "Feature", "properties": { "name": "Halledoelau Staedt Krankenhaus" }, "geometry": { "type": "Point", "coordinates": [ 11.880000000000, 51.5038891666670 ] } },
    { "type": "Feature", "properties": { "name": "Kroellwitz Uni" }, "geometry": { "type": "Point", "coordinates": [ 11.935500000000, 51.5010000000000 ] } },
    { "type": "Feature", "properties": { "name": "Wiessenfels Asklepios" }, "geometry": { "type": "Point", "coordinates": [ 11.955411111111, 51.1936580555560 ] } },
    { "type": "Feature", "properties": { "name": "Halle Elisabeth und Barbara" }, "geometry": { "type": "Point", "coordinates": [ 11.968889166667, 51.4772222222220 ] } },
    { "type": "Feature", "properties": { "name": "Halle Berufsgen. Kliniken" }, "geometry": { "type": "Point", "coordinates": [ 11.987694166667, 51.4605530555560 ] } },
    { "type": "Feature", "properties": { "name": "Schkeuditz ADAC LRZ" }, "geometry": { "type": "Point", "coordinates": [ 12.192500000000, 51.3511111111110 ] } },
    { "type": "Feature", "properties": { "name": "Dessau Staedt Klinikum" }, "geometry": { "type": "Point", "coordinates": [ 12.197283055556, 51.8158830555560 ] } },
    { "type": "Feature", "properties": { "name": "Schoeneck Paracelsus" }, "geometry": { "type": "Point", "coordinates": [ 12.335964166667, 50.3977830555560 ] } },
    { "type": "Feature", "properties": { "name": "Leipzig Staedt" }, "geometry": { "type": "Point", "coordinates": [ 12.375930000000, 51.3832122222220 ] } },
    { "type": "Feature", "properties": { "name": "Leipzig St. Elisabethkrankenhaus" }, "geometry": { "type": "Point", "coordinates": [ 12.378737222222, 51.3034711111110 ] } },
    { "type": "Feature", "properties": { "name": "Leipzig Uni Operative" }, "geometry": { "type": "Point", "coordinates": [ 12.387444444444, 51.3303061111110 ] } },
    { "type": "Feature", "properties": { "name": "Leipzig Uni Zentrallager" }, "geometry": { "type": "Point", "coordinates": [ 12.388831111111, 51.3291330555560 ] } },
    { "type": "Feature", "properties": { "name": "Zwickau Heinrich Braun" }, "geometry": { "type": "Point", "coordinates": [ 12.429208055556, 50.7199191666670 ] } },
    { "type": "Feature", "properties": { "name": "Leipzig Herzzentrum Dach" }, "geometry": { "type": "Point", "coordinates": [ 12.435681111111, 51.3075750000000 ] } },
    { "type": "Feature", "properties": { "name": "Leipzig Herzzentrum Boden" }, "geometry": { "type": "Point", "coordinates": [ 12.436758055556, 51.3060472222220 ] } },
    { "type": "Feature", "properties": { "name": "Borna Sana Klinikum" }, "geometry": { "type": "Point", "coordinates": [ 12.506517222222, 51.1354861111110 ] } },
    { "type": "Feature", "properties": { "name": "FA Ulrich Altner" }, "geometry": { "type": "Point", "coordinates": [ 12.649067222222, 51.2460141666670 ] } },
    { "type": "Feature", "properties": { "name": "Erlabrunn Kliniken" }, "geometry": { "type": "Point", "coordinates": [ 12.707056111111, 50.4718330555560 ] } },
    { "type": "Feature", "properties": { "name": "AUE Helios Klinikum" }, "geometry": { "type": "Point", "coordinates": [ 12.716111111111, 50.5930561111110 ] } },
    { "type": "Feature", "properties": { "name": "Bad Berka Zentral Dach" }, "geometry": { "type": "Point", "coordinates": [ 11.266222222222, 50.8899222222220 ] } },
    { "type": "Feature", "properties": { "name": "Loerrach Kreiskrankenhaus" }, "geometry": { "type": "Point", "coordinates": [ 7.6589000000000, 47.6143841666670 ] } },
    { "type": "Feature", "properties": { "name": "Schwarzwaldbaar Klinikum" }, "geometry": { "type": "Point", "coordinates": [ 8.4807272222222, 47.9560200000000 ] } },
    { "type": "Feature", "properties": { "name": "Freiburg St. Josefskrankenhaus" }, "geometry": { "type": "Point", "coordinates": [ 7.8519230555556, 48.0015661111110 ] } },
    { "type": "Feature", "properties": { "name": "Freiburg Uniklinikum FR2" }, "geometry": { "type": "Point", "coordinates": [ 7.8402280555556, 48.0067891666670 ] } },
    { "type": "Feature", "properties": { "name": "Freiburg Uniklinikum FR1" }, "geometry": { "type": "Point", "coordinates": [ 7.8392472222222, 48.0074691666670 ] } },
    { "type": "Feature", "properties": { "name": "Rottweil Helios Klinik" }, "geometry": { "type": "Point", "coordinates": [ 8.6112600000000, 48.1651650000000 ] } },
    { "type": "Feature", "properties": { "name": "Polizeistuetzpunkt" }, "geometry": { "type": "Point", "coordinates": [ 8.5748700000000, 48.1735111111110 ] } },
    { "type": "Feature", "properties": { "name": "Norddach Firma Junker" }, "geometry": { "type": "Point", "coordinates": [ 8.0723030555556, 48.3910280555560 ] } },
    { "type": "Feature", "properties": { "name": "Freudenstadt Krankenhaus" }, "geometry": { "type": "Point", "coordinates": [ 8.4045500000000, 48.4769172222220 ] } },
    { "type": "Feature", "properties": { "name": "Bruchsal" }, "geometry": { "type": "Point", "coordinates": [ 8.5626400000000, 49.1220041666670 ] } },
    { "type": "Feature", "properties": { "name": "Saarbruecken" }, "geometry": { "type": "Point", "coordinates": [ 6.9986891666667, 49.2222611111110 ] } },
    { "type": "Feature", "properties": { "name": "KL Westpfalz Klinikum" }, "geometry": { "type": "Point", "coordinates": [ 7.7569280555556, 49.4416830555560 ] } },
    { "type": "Feature", "properties": { "name": "St. Wendel Golfhotel" }, "geometry": { "type": "Point", "coordinates": [ 7.1387111111111, 49.4748941666670 ] } },
    { "type": "Feature", "properties": { "name": "BGU Ludwigshafen" }, "geometry": { "type": "Point", "coordinates": [ 8.3891672222222, 49.4863891666670 ] } },
    { "type": "Feature", "properties": { "name": "Mannheim Theresienkrankenhaus" }, "geometry": { "type": "Point", "coordinates": [ 8.4813672222222, 49.4893941666670 ] } },
    { "type": "Feature", "properties": { "name": "Ludwigshafen" }, "geometry": { "type": "Point", "coordinates": [ 8.4247222222222, 49.4911111111110 ] } },
    { "type": "Feature", "properties": { "name": "Gruenstadt Kreiskrankenhaus" }, "geometry": { "type": "Point", "coordinates": [ 8.1583333333333, 49.5631672222220 ] } },
    { "type": "Feature", "properties": { "name": "Worms Klinikum" }, "geometry": { "type": "Point", "coordinates": [ 8.3211111111111, 49.6486111111110 ] } },
    { "type": "Feature", "properties": { "name": "Rottweil Krankenhaus" }, "geometry": { "type": "Point", "coordinates": [ 8.6361111111111, 48.1494444444440 ] } },
    { "type": "Feature", "properties": { "name": "Karlsruhe Staedt" }, "geometry": { "type": "Point", "coordinates": [ 8.3748280555556, 49.0183650000000 ] } },
    { "type": "Feature", "properties": { "name": "Klinik Bruchsal" }, "geometry": { "type": "Point", "coordinates": [ 8.6027780555556, 49.1322222222220 ] } },
    { "type": "Feature", "properties": { "name": "Zentralklinikum Villingen Schwenningen" }, "geometry": { "type": "Point", "coordinates": [ 8.5010280555556, 48.0662780555560 ] } },
    { "type": "Feature", "properties": { "name": "Braeunlingen Firma Straub" }, "geometry": { "type": "Point", "coordinates": [ 8.4618250000000, 47.9277250000000 ] } },
    { "type": "Feature", "properties": { "name": "Lahr ETT Ortenau Klinikum" }, "geometry": { "type": "Point", "coordinates": [ 7.8871172222222, 48.3440672222220 ] } },
    { "type": "Feature", "properties": { "name": "Rueppurr Diakonie" }, "geometry": { "type": "Point", "coordinates": [ 8.4091672222222, 48.9708330555560 ] } },
    { "type": "Feature", "properties": { "name": "SRH Klinikum" }, "geometry": { "type": "Point", "coordinates": [ 8.5030000000000, 48.9045000000000 ] } },
    { "type": "Feature", "properties": { "name": "Mannheim Klinikum" }, "geometry": { "type": "Point", "coordinates": [ 8.4864311111111, 49.4932641666670 ] } },
    { "type": "Feature", "properties": { "name": "Pforzheim Krankenhaus" }, "geometry": { "type": "Point", "coordinates": [ 8.6734061111111, 48.8978922222220 ] } },
    { "type": "Feature", "properties": { "name": "Pforzheim Arcus" }, "geometry": { "type": "Point", "coordinates": [ 8.6655000000000, 48.8978330555560 ] } },
    { "type": "Feature", "properties": { "name": "Heidelberg Uniklinikum" }, "geometry": { "type": "Point", "coordinates": [ 8.6698330555556, 49.4215000000000 ] } },
    { "type": "Feature", "properties": { "name": "Bad Krozingen Herzzentrum" }, "geometry": { "type": "Point", "coordinates": [ 7.6988900000000, 47.9074080555560 ] } },
    { "type": "Feature", "properties": { "name": "Offenburg Kreiskrankenhaus" }, "geometry": { "type": "Point", "coordinates": [ 7.9550000000000, 48.4763891666670 ] } },
    { "type": "Feature", "properties": { "name": "Speyer Diakonie" }, "geometry": { "type": "Point", "coordinates": [ 8.4355830555556, 49.3104444444440 ] } },
    { "type": "Feature", "properties": { "name": "Heidelberg Chirurg Dach" }, "geometry": { "type": "Point", "coordinates": [ 8.6657061111111, 49.4152030555560 ] } },
    { "type": "Feature", "properties": { "name": "Neunkirchen Staedt" }, "geometry": { "type": "Point", "coordinates": [ 7.1830561111111, 49.3413891666670 ] } },
    { "type": "Feature", "properties": { "name": "Homburg Saar Uniklinik" }, "geometry": { "type": "Point", "coordinates": [ 7.3450000000000, 49.3066672222220 ] } },
    { "type": "Feature", "properties": { "name": "Singen Hegauklinikum" }, "geometry": { "type": "Point", "coordinates": [ 8.8212400000000, 47.7602122222220 ] } },
    { "type": "Feature", "properties": { "name": "Muelhausen" }, "geometry": { "type": "Point", "coordinates": [ 8.8215172222222, 47.8057630555560 ] } },
    { "type": "Feature", "properties": { "name": "Balingen Krankenhaus" }, "geometry": { "type": "Point", "coordinates": [ 8.8633861111111, 48.2870472222220 ] } },
    { "type": "Feature", "properties": { "name": "Burladingen Firma Trigema" }, "geometry": { "type": "Point", "coordinates": [ 9.1067450000000, 48.2876561111110 ] } },
    { "type": "Feature", "properties": { "name": "Reutlingen Klinikum" }, "geometry": { "type": "Point", "coordinates": [ 9.2184311111111, 48.4839722222220 ] } },
    { "type": "Feature", "properties": { "name": "Reutlingenbetzingen" }, "geometry": { "type": "Point", "coordinates": [ 9.1545130555556, 48.4915222222220 ] } },
    { "type": "Feature", "properties": { "name": "Tuebingen Cronakliniken" }, "geometry": { "type": "Point", "coordinates": [ 9.0381391666667, 48.5295730555560 ] } },
    { "type": "Feature", "properties": { "name": "Tuebingen Unfallklinik" }, "geometry": { "type": "Point", "coordinates": [ 9.0356391666667, 48.5329061111110 ] } },
    { "type": "Feature", "properties": { "name": "Nagold Kreiskrankenhaus" }, "geometry": { "type": "Point", "coordinates": [ 8.7229780555556, 48.5417130555560 ] } },
    { "type": "Feature", "properties": { "name": "Tuttlingen Klinikum" }, "geometry": { "type": "Point", "coordinates": [ 8.8314172222222, 47.9851750000000 ] } },
    { "type": "Feature", "properties": { "name": "Pfronstettenaichelau" }, "geometry": { "type": "Point", "coordinates": [ 9.3944472222222, 48.2884391666670 ] } },
    { "type": "Feature", "properties": { "name": "Konstanz Klinikum" }, "geometry": { "type": "Point", "coordinates": [ 9.1886750000000, 47.6719891666670 ] } },
    { "type": "Feature", "properties": { "name": "Schwalmstadt Krankenhaus" }, "geometry": { "type": "Point", "coordinates": [ 9.1663891666667, 50.9097222222220 ] } },
    { "type": "Feature", "properties": { "name": "Schwalmstadt Asklepios" }, "geometry": { "type": "Point", "coordinates": [ 9.2552080555556, 50.9213361111110 ] } },
    { "type": "Feature", "properties": { "name": "Kassel Rotes Kreuz Krankenhaus" }, "geometry": { "type": "Point", "coordinates": [ 9.4534722222222, 51.3116672222220 ] } },
    { "type": "Feature", "properties": { "name": "Kassel Klinikum" }, "geometry": { "type": "Point", "coordinates": [ 9.5094011111111, 51.3285491666670 ] } },
    { "type": "Feature", "properties": { "name": "Fulda Klinikum" }, "geometry": { "type": "Point", "coordinates": [ 9.7042091666667, 50.5458430555560 ] } },
    { "type": "Feature", "properties": { "name": "Bad Salzungen Klinikum" }, "geometry": { "type": "Point", "coordinates": [ 10.216731111111, 50.8041941666670 ] } },
    { "type": "Feature", "properties": { "name": "Eisenach St. Georg" }, "geometry": { "type": "Point", "coordinates": [ 10.316667222222, 50.9875000000000 ] } },
    { "type": "Feature", "properties": { "name": "Meiningen Helios Klinikum" }, "geometry": { "type": "Point", "coordinates": [ 10.398942222222, 50.5570830555560 ] } },
    { "type": "Feature", "properties": { "name": "Muehlhausen Klinikum" }, "geometry": { "type": "Point", "coordinates": [ 10.468736111111, 51.2003922222220 ] } },
    { "type": "Feature", "properties": { "name": "Aachen Uniklinikum" }, "geometry": { "type": "Point", "coordinates": [ 6.0443811111111, 50.7756722222220 ] } },
    { "type": "Feature", "properties": { "name": "Rhein Maas Klinikum" }, "geometry": { "type": "Point", "coordinates": [ 6.1432141666667, 50.8148972222220 ] } },
    { "type": "Feature", "properties": { "name": "Kalkar" }, "geometry": { "type": "Point", "coordinates": [ 6.3226441666667, 51.7646172222220 ] } },
    { "type": "Feature", "properties": { "name": "Krefeld Klinikum" }, "geometry": { "type": "Point", "coordinates": [ 6.5652500000000, 51.3212811111110 ] } },
    { "type": "Feature", "properties": { "name": "Goennersdorf am Achelshof" }, "geometry": { "type": "Point", "coordinates": [ 6.5825000000000, 50.3270000000000 ] } },
    { "type": "Feature", "properties": { "name": "Trier Barmherzige Muetter" }, "geometry": { "type": "Point", "coordinates": [ 6.6408330555556, 49.7628330555560 ] } },
    { "type": "Feature", "properties": { "name": "Mechernich Kreiskrankenhaus" }, "geometry": { "type": "Point", "coordinates": [ 6.6500261111111, 50.5920722222220 ] } },
    { "type": "Feature", "properties": { "name": "Duisburg BG Dach" }, "geometry": { "type": "Point", "coordinates": [ 6.7860200000000, 51.3814041666670 ] } },
    { "type": "Feature", "properties": { "name": "Duisburg BG Boden" }, "geometry": { "type": "Point", "coordinates": [ 6.7867641666667, 51.3806391666670 ] } },
    { "type": "Feature", "properties": { "name": "Duesseldorf Uniklink" }, "geometry": { "type": "Point", "coordinates": [ 6.7892530555556, 51.1952580555560 ] } },
    { "type": "Feature", "properties": { "name": "Dormagen" }, "geometry": { "type": "Point", "coordinates": [ 6.8092600000000, 51.0737280555560 ] } },
    { "type": "Feature", "properties": { "name": "Wittlich St. Elisabeth" }, "geometry": { "type": "Point", "coordinates": [ 6.8930561111111, 49.9997222222220 ] } },
    { "type": "Feature", "properties": { "name": "Koeln Uniklinik UKK2" }, "geometry": { "type": "Point", "coordinates": [ 6.9197941666667, 50.9239280555560 ] } },
    { "type": "Feature", "properties": { "name": "Nippes St. Vinzenz" }, "geometry": { "type": "Point", "coordinates": [ 6.9457641666667, 50.9667530555560 ] } },
    { "type": "Feature", "properties": { "name": "Koelndeutz Messe" }, "geometry": { "type": "Point", "coordinates": [ 6.9809030555556, 50.9431861111110 ] } },
    { "type": "Feature", "properties": { "name": "Essen Uniklinikum" }, "geometry": { "type": "Point", "coordinates": [ 6.9890561111111, 51.4335611111110 ] } },
    { "type": "Feature", "properties": { "name": "Koelnmerheim" }, "geometry": { "type": "Point", "coordinates": [ 7.0541111111111, 50.9386111111110 ] } },
    { "type": "Feature", "properties": { "name": "Grafschaft Haribo" }, "geometry": { "type": "Point", "coordinates": [ 7.0894672222222, 50.5769172222220 ] } },
    { "type": "Feature", "properties": { "name": "Venusberg Uni" }, "geometry": { "type": "Point", "coordinates": [ 7.1024061111111, 50.7017750000000 ] } },
    { "type": "Feature", "properties": { "name": "St. Johanneskrankenhaus" }, "geometry": { "type": "Point", "coordinates": [ 7.1181061111111, 50.7968141666670 ] } },
    { "type": "Feature", "properties": { "name": "Marl" }, "geometry": { "type": "Point", "coordinates": [ 7.1238891666667, 51.6638891666670 ] } },
    { "type": "Feature", "properties": { "name": "Trier Mutterhaus" }, "geometry": { "type": "Point", "coordinates": [ 6.6308891666667, 49.7543611111110 ] } },
    { "type": "Feature", "properties": { "name": "Zuerburgring Hotel" }, "geometry": { "type": "Point", "coordinates": [ 6.9430561111111, 50.3311111111110 ] } },
    { "type": "Feature", "properties": { "name": "Eschweiler St. Antonius" }, "geometry": { "type": "Point", "coordinates": [ 6.2644672222222, 50.8184811111110 ] } },
    { "type": "Feature", "properties": { "name": "Duisburg Nord Ev." }, "geometry": { "type": "Point", "coordinates": [ 6.7667280555556, 51.5158391666670 ] } },
    { "type": "Feature", "properties": { "name": "Frechen Katharinen" }, "geometry": { "type": "Point", "coordinates": [ 6.8087111111111, 50.9231611111110 ] } },
    { "type": "Feature", "properties": { "name": "MGL St. Franziskus" }, "geometry": { "type": "Point", "coordinates": [ 6.4216000000000, 51.2173080555560 ] } },
    { "type": "Feature", "properties": { "name": "Duisburg Wedau Sana Kliniken" }, "geometry": { "type": "Point", "coordinates": [ 6.7825561111111, 51.3960280555560 ] } },
    { "type": "Feature", "properties": { "name": "Coesfeld" }, "geometry": { "type": "Point", "coordinates": [ 7.1747641666667, 51.9439122222220 ] } },
    { "type": "Feature", "properties": { "name": "Bochum" }, "geometry": { "type": "Point", "coordinates": [ 7.2108691666667, 51.4686850000000 ] } },
    { "type": "Feature", "properties": { "name": "Dattenberg Firma SP" }, "geometry": { "type": "Point", "coordinates": [ 7.3028030555556, 50.5573972222220 ] } },
    { "type": "Feature", "properties": { "name": "Leubsdorf" }, "geometry": { "type": "Point", "coordinates": [ 7.3144444444444, 50.5444444444440 ] } },
    { "type": "Feature", "properties": { "name": "Ennepetal Oelklinghausen" }, "geometry": { "type": "Point", "coordinates": [ 7.3286300000000, 51.2925941666670 ] } },
    { "type": "Feature", "properties": { "name": "Herdecke" }, "geometry": { "type": "Point", "coordinates": [ 7.3991750000000, 51.4006372222220 ] } },
    { "type": "Feature", "properties": { "name": "DHD Heliservice" }, "geometry": { "type": "Point", "coordinates": [ 7.4241761111111, 50.3532522222220 ] } },
    { "type": "Feature", "properties": { "name": "Saffig" }, "geometry": { "type": "Point", "coordinates": [ 7.4308111111111, 50.3741330555560 ] } },
    { "type": "Feature", "properties": { "name": "DO Klinikzentrum Nord" }, "geometry": { "type": "Point", "coordinates": [ 7.4547222222222, 51.5333333333330 ] } },
    { "type": "Feature", "properties": { "name": "Neuwied Elisabeth" }, "geometry": { "type": "Point", "coordinates": [ 7.4715000000000, 50.4280000000000 ] } },
    { "type": "Feature", "properties": { "name": "Luenen St. Marienhospital" }, "geometry": { "type": "Point", "coordinates": [ 7.5152691666667, 51.6189472222220 ] } },
    { "type": "Feature", "properties": { "name": "Koblenz BWZK" }, "geometry": { "type": "Point", "coordinates": [ 7.5452780555556, 50.3677780555560 ] } },
    { "type": "Feature", "properties": { "name": "Gummersbach Kreiskrankenhaus" }, "geometry": { "type": "Point", "coordinates": [ 7.5683191666667, 51.0148461111110 ] } },
    { "type": "Feature", "properties": { "name": "Muenster Zentralklinikum" }, "geometry": { "type": "Point", "coordinates": [ 7.5905561111111, 51.9605561111110 ] } },
    { "type": "Feature", "properties": { "name": "Boppard Jakobsberg" }, "geometry": { "type": "Point", "coordinates": [ 7.5958191666667, 50.2563180555560 ] } },
    { "type": "Feature", "properties": { "name": "Bad Kreuznach Marienwoerth" }, "geometry": { "type": "Point", "coordinates": [ 7.8621672222222, 49.8470000000000 ] } },
    { "type": "Feature", "properties": { "name": "Ahlennord" }, "geometry": { "type": "Point", "coordinates": [ 7.9096561111111, 51.7836522222220 ] } },
    { "type": "Feature", "properties": { "name": "Siegen Jungstillkrankenhaus" }, "geometry": { "type": "Point", "coordinates": [ 8.0182550000000, 50.8518100000000 ] } },
    { "type": "Feature", "properties": { "name": "Mainz Uniklinikum" }, "geometry": { "type": "Point", "coordinates": [ 8.2546580555556, 49.9941311111110 ] } },
    { "type": "Feature", "properties": { "name": "Erwitte" }, "geometry": { "type": "Point", "coordinates": [ 8.3407041666667, 51.6111711111110 ] } },
    { "type": "Feature", "properties": { "name": "Lintel" }, "geometry": { "type": "Point", "coordinates": [ 8.3637550000000, 51.8386461111110 ] } },
    { "type": "Feature", "properties": { "name": "Bad Berleburg" }, "geometry": { "type": "Point", "coordinates": [ 8.3787572222222, 51.0498450000000 ] } },
    { "type": "Feature", "properties": { "name": "Guetersloh" }, "geometry": { "type": "Point", "coordinates": [ 8.4201361111111, 51.9075272222220 ] } },
    { "type": "Feature", "properties": { "name": "Bielefeld Krankenhaus" }, "geometry": { "type": "Point", "coordinates": [ 8.5442841666667, 52.0147372222220 ] } },
    { "type": "Feature", "properties": { "name": "Frankfurt Hoechst" }, "geometry": { "type": "Point", "coordinates": [ 8.5471141666667, 50.1098250000000 ] } },
    { "type": "Feature", "properties": { "name": "Stukenbrock" }, "geometry": { "type": "Point", "coordinates": [ 8.6028872222222, 51.8675322222220 ] } },
    { "type": "Feature", "properties": { "name": "Frankfurt am Main Nordwestkrankenhaus" }, "geometry": { "type": "Point", "coordinates": [ 8.6195630555556, 50.1507780555560 ] } },
    { "type": "Feature", "properties": { "name": "Oerlinghausen" }, "geometry": { "type": "Point", "coordinates": [ 8.6473241666667, 51.9453011111110 ] } },
    { "type": "Feature", "properties": { "name": "Frankfurt am Main Uniklinik" }, "geometry": { "type": "Point", "coordinates": [ 8.6625000000000, 50.0955000000000 ] } },
    { "type": "Feature", "properties": { "name": "Burgholzhausen Rotorflug" }, "geometry": { "type": "Point", "coordinates": [ 8.6663333333333, 50.2643333333330 ] } },
    { "type": "Feature", "properties": { "name": "Giessen Uniklinikum" }, "geometry": { "type": "Point", "coordinates": [ 8.6670561111111, 50.5758061111110 ] } },
    { "type": "Feature", "properties": { "name": "Bad Rothenfelde Kliniken" }, "geometry": { "type": "Point", "coordinates": [ 8.1658330555556, 52.1133333333330 ] } },
    { "type": "Feature", "properties": { "name": "Marburg" }, "geometry": { "type": "Point", "coordinates": [ 8.8076780555556, 50.8147580555560 ] } },
    { "type": "Feature", "properties": { "name": "Bad Soden" }, "geometry": { "type": "Point", "coordinates": [ 8.5144444444444, 50.1500000000000 ] } },
    { "type": "Feature", "properties": { "name": "Bad Homburg Hochtaunuskliniken" }, "geometry": { "type": "Point", "coordinates": [ 8.6191672222222, 50.2124172222220 ] } },
    { "type": "Feature", "properties": { "name": "Darmstadt Klinikum" }, "geometry": { "type": "Point", "coordinates": [ 8.6453450000000, 49.8745761111110 ] } },
    { "type": "Feature", "properties": { "name": "Wetzlar Lahndillkliniken" }, "geometry": { "type": "Point", "coordinates": [ 8.5283941666667, 50.5371641666670 ] } },
    { "type": "Feature", "properties": { "name": "Giessen Johanniter" }, "geometry": { "type": "Point", "coordinates": [ 8.6526311111111, 50.5724000000000 ] } },
    { "type": "Feature", "properties": { "name": "Nuertingen Medius Klinik" }, "geometry": { "type": "Point", "coordinates": [ 9.3590391666667, 48.6288191666670 ] } },
    { "type": "Feature", "properties": { "name": "Kirchheim unter Teck Medius" }, "geometry": { "type": "Point", "coordinates": [ 9.4430800000000, 48.6520630555560 ] } },
    { "type": "Feature", "properties": { "name": "Boeblingen Krankenhaus" }, "geometry": { "type": "Point", "coordinates": [ 9.0322000000000, 48.6905611111110 ] } },
    { "type": "Feature", "properties": { "name": "Sindelfingen Daimler AG" }, "geometry": { "type": "Point", "coordinates": [ 8.9856441666667, 48.6928888888890 ] } },
    { "type": "Feature", "properties": { "name": "Calw Kreiskrankenhaus" }, "geometry": { "type": "Point", "coordinates": [ 8.7466672222222, 48.7150000000000 ] } },
    { "type": "Feature", "properties": { "name": "Ostfildernruit Medius" }, "geometry": { "type": "Point", "coordinates": [ 9.2546111111111, 48.7418061111110 ] } },
    { "type": "Feature", "properties": { "name": "Untertuerkheim Daimler AG" }, "geometry": { "type": "Point", "coordinates": [ 9.2397722222222, 48.7820472222220 ] } },
    { "type": "Feature", "properties": { "name": "Stuttgart Katharinen" }, "geometry": { "type": "Point", "coordinates": [ 9.1731150000000, 48.7839900000000 ] } },
    { "type": "Feature", "properties": { "name": "Gerlingen Firma Bosch" }, "geometry": { "type": "Point", "coordinates": [ 9.0628530555556, 48.7853780555560 ] } },
    { "type": "Feature", "properties": { "name": "Leonberg Kreiskrankenhaus" }, "geometry": { "type": "Point", "coordinates": [ 8.9992511111111, 48.8031530555560 ] } },
    { "type": "Feature", "properties": { "name": "Mutlangen Stauferklinikum" }, "geometry": { "type": "Point", "coordinates": [ 9.7871950000000, 48.8201022222220 ] } },
    { "type": "Feature", "properties": { "name": "Schwieberdingen Bosch" }, "geometry": { "type": "Point", "coordinates": [ 9.0820161111111, 48.8837000000000 ] } },
    { "type": "Feature", "properties": { "name": "Pforzheim Klinikum" }, "geometry": { "type": "Point", "coordinates": [ 8.7120430555556, 48.8886830555560 ] } },
    { "type": "Feature", "properties": { "name": "Ludwigsburg Klinik" }, "geometry": { "type": "Point", "coordinates": [ 9.2039430555556, 48.8995330555560 ] } },
    { "type": "Feature", "properties": { "name": "Markgroeningen Klinik" }, "geometry": { "type": "Point", "coordinates": [ 9.1088891666667, 48.9088891666670 ] } },
    { "type": "Feature", "properties": { "name": "Loewenstein Klink" }, "geometry": { "type": "Point", "coordinates": [ 9.4019672222222, 49.0895130555560 ] } },
    { "type": "Feature", "properties": { "name": "Schwäbisch Hall Diakonie" }, "geometry": { "type": "Point", "coordinates": [ 9.7416400000000, 49.1250672222220 ] } },
    { "type": "Feature", "properties": { "name": "Klinikum am Gesundbrunnen" }, "geometry": { "type": "Point", "coordinates": [ 9.1901291666667, 49.1530180555560 ] } },
    { "type": "Feature", "properties": { "name": "Obersoellbach Firma Helix" }, "geometry": { "type": "Point", "coordinates": [ 9.5585441666667, 49.1840972222220 ] } },
    { "type": "Feature", "properties": { "name": "Bad Friedrichshall Klinikum" }, "geometry": { "type": "Point", "coordinates": [ 9.2367330555556, 49.2130091666670 ] } },
    { "type": "Feature", "properties": { "name": "Oedheim" }, "geometry": { "type": "Point", "coordinates": [ 9.2344050000000, 49.2414791666670 ] } },
    { "type": "Feature", "properties": { "name": "Mosbach Kreiskrankenhaus" }, "geometry": { "type": "Point", "coordinates": [ 9.1526941666667, 49.3555555555560 ] } },
    { "type": "Feature", "properties": { "name": "Erbach Odenwald Kreiskrankenhaus" }, "geometry": { "type": "Point", "coordinates": [ 9.0016891666667, 49.6519861111110 ] } },
    { "type": "Feature", "properties": { "name": "Ochsenfurt Kreiskrankenhaus" }, "geometry": { "type": "Point", "coordinates": [ 10.086736111111, 49.6597111111110 ] } },
    { "type": "Feature", "properties": { "name": "Iphofen Firma Knauf" }, "geometry": { "type": "Point", "coordinates": [ 10.282436111111, 49.6948611111110 ] } },
    { "type": "Feature", "properties": { "name": "Wuerzburg" }, "geometry": { "type": "Point", "coordinates": [ 9.9563200000000, 49.8083241666670 ] } },
    { "type": "Feature", "properties": { "name": "Grossumstadt Kreisklinik" }, "geometry": { "type": "Point", "coordinates": [ 8.9355222222222, 49.8666572222220 ] } },
    { "type": "Feature", "properties": { "name": "Offenbach Klinikum" }, "geometry": { "type": "Point", "coordinates": [ 8.7570161111111, 50.0945061111110 ] } },
    { "type": "Feature", "properties": { "name": "Frankfurt BG" }, "geometry": { "type": "Point", "coordinates": [ 8.7090191666667, 50.1454472222220 ] } },
    { "type": "Feature", "properties": { "name": "Hammelburg Unterer Thal" }, "geometry": { "type": "Point", "coordinates": [ 9.8757700000000, 50.1571730555560 ] } },
    { "type": "Feature", "properties": { "name": "Bad Kissingen Elisabeth" }, "geometry": { "type": "Point", "coordinates": [ 10.082639166667, 50.1902750000000 ] } },
    { "type": "Feature", "properties": { "name": "Winnenden Klinik" }, "geometry": { "type": "Point", "coordinates": [ 9.3932111111111, 48.8701941666670 ] } },
    { "type": "Feature", "properties": { "name": "Stuttgart Marienhospital" }, "geometry": { "type": "Point", "coordinates": [ 9.1638561111111, 48.7610741666670 ] } },
    { "type": "Feature", "properties": { "name": "Esslingen Klinikum" }, "geometry": { "type": "Point", "coordinates": [ 9.3269972222222, 48.7375330555560 ] } },
    { "type": "Feature", "properties": { "name": "Seitenbacher" }, "geometry": { "type": "Point", "coordinates": [ 9.3409172222222, 49.5282000000000 ] } },
    { "type": "Feature", "properties": { "name": "Sindelfingen Staedt Krankenhaus" }, "geometry": { "type": "Point", "coordinates": [ 9.0245261111111, 48.7151080555560 ] } },
    { "type": "Feature", "properties": { "name": "Bad Mergentheim Krankenhaus" }, "geometry": { "type": "Point", "coordinates": [ 9.7630030555556, 49.4892922222220 ] } },
    { "type": "Feature", "properties": { "name": "Frankfurt BGU LRZ Dach" }, "geometry": { "type": "Point", "coordinates": [ 8.7102000000000, 50.1454672222220 ] } },
    { "type": "Feature", "properties": { "name": "Bad Neustadt Saale" }, "geometry": { "type": "Point", "coordinates": [ 10.235075000000, 50.3226780555560 ] } },
    { "type": "Feature", "properties": { "name": "Bad Cannstadt Robert Bosch" }, "geometry": { "type": "Point", "coordinates": [ 9.1854672222222, 48.8138722222220 ] } }
]
}
